$GNRMC,122517.00,A,4924.76138,N,00841.02983,E,0.018,,121219,,,D*65
$GNVTG,,T,,M,0.018,N,0.033,K,D*31
$GNGGA,122517.00,4924.76138,N,00841.02983,E,2,07,2.15,160.1,M,47.5,M,,0000*4F
$GNGSA,A,3,02,05,13,07,06,30,,,,,,,3.38,2.15,2.60*11
$GNGSA,A,3,84,,,,,,,,,,,,3.38,2.15,2.60*1A
$GPGSV,3,1,10,02,26,240,42,05,50,298,43,06,09,202,25,07,70,082,32*7B
$GPGSV,3,2,10,09,32,087,19,13,20,269,39,28,04,161,26,30,65,191,18*7D
$GPGSV,3,3,10,36,29,151,38,49,33,185,*79
$GLGSV,1,1,02,84,13,266,27,,,,20*5C
$GNGLL,4924.76138,N,00841.02983,E,122517.00,A,D*7D
$GNRMC,122518.00,A,4924.76146,N,00841.03003,E,0.048,,121219,,,D*66
$GNVTG,,T,,M,0.048,N,0.088,K,D*34
$GNGGA,122518.00,4924.76146,N,00841.03003,E,2,07,2.15,159.7,M,47.5,M,,0000*45
$GNGSA,A,3,02,05,13,07,06,30,,,,,,,3.38,2.15,2.60*11
$GNGSA,A,3,84,,,,,,,,,,,,3.38,2.15,2.60*1A
$GPGSV,3,1,10,02,26,240,43,05,50,298,43,06,09,202,25,07,70,082,32*7A
$GPGSV,3,2,10,09,32,087,18,13,20,269,39,28,04,161,26,30,65,191,18*7C
$GPGSV,3,3,10,36,29,151,38,49,33,185,*79
$GLGSV,1,1,02,84,13,266,28,,,,20*53
$GNGLL,4924.76146,N,00841.03003,E,122518.00,A,D*7B
$GNRMC,122519.00,A,4924.76149,N,00841.03015,E,0.154,,121219,,,D*63
$GNVTG,,T,,M,0.154,N,0.286,K,D*34
$GNGGA,122519.00,4924.76149,N,00841.03015,E,2,07,2.15,159.5,M,47.5,M,,0000*4E
$GNGSA,A,3,02,05,13,07,06,30,,,,,,,3.38,2.15,2.60*11
$GNGSA,A,3,84,,,,,,,,,,,,3.38,2.15,2.60*1A
$GPGSV,3,1,10,02,26,240,43,05,50,298,43,06,09,202,24,07,70,082,32*7B
$GPGSV,3,2,10,09,32,087,18,13,20,269,39,28,04,161,26,30,65,191,18*7C
$GPGSV,3,3,10,36,29,151,38,49,33,185,*79
$GLGSV,1,1,02,84,13,266,28,,,,20*53
$GNGLL,4924.76149,N,00841.03015,E,122519.00,A,D*72
$GNRMC,122520.00,A,4924.76156,N,00841.03034,E,0.020,,121219,,,D*66
$GNVTG,,T,,M,0.020,N,0.038,K,D*31
$GNGGA,122520.00,4924.76156,N,00841.03034,E,2,07,2.15,159.0,M,47.5,M,,0000*4C
$GNGSA,A,3,02,05,13,07,06,30,,,,,,,3.38,2.15,2.60*11
$GNGSA,A,3,84,,,,,,,,,,,,3.38,2.15,2.60*1A
$GPGSV,3,1,10,02,26,240,43,05,51,297,43,06,09,202,24,07,70,082,32*75
$GPGSV,3,2,10,09,32,087,18,13,20,269,39,28,04,161,25,30,65,191,18*7F
$GPGSV,3,3,10,36,29,151,38,49,33,185,*79
$GLGSV,1,1,02,84,13,266,28,,,,19*59
$GNGLL,4924.76156,N,00841.03034,E,122520.00,A,D*75
$GNRMC,122521.00,A,4924.76163,N,00841.03048,E,0.148,,121219,,,D*65
$GNVTG,,T,,M,0.148,N,0.275,K,D*35
$GNGGA,122521.00,4924.76163,N,00841.03048,E,2,07,2.15,158.6,M,47.5,M,,0000*47
$GNGSA,A,3,02,05,13,07,06,30,,,,,,,3.38,2.15,2.60*11
$GNGSA,A,3,84,,,,,,,,,,,,3.38,2.15,2.60*1A
$GPGSV,3,1,10,02,26,240,43,05,51,297,43,06,08,201,23,07,70,082,32*70
$GPGSV,3,2,10,09,32,087,,13,20,269,39,28,04,161,25,30,65,191,19*77
$GPGSV,3,3,10,36,29,151,38,49,33,185,*79
$GLGSV,1,1,02,84,13,266,27,,,,18*57
$GNGLL,4924.76163,N,00841.03048,E,122521.00,A,D*79
$GNRMC,122522.00,A,4924.76171,N,00841.03065,E,0.104,,121219,,,D*62
$GNVTG,,T,,M,0.104,N,0.192,K,D*37
$GNGGA,122522.00,4924.76171,N,00841.03065,E,2,07,2.15,158.2,M,47.5,M,,0000*4C
$GNGSA,A,3,02,05,13,07,06,30,,,,,,,3.38,2.15,2.60*11
$GNGSA,A,3,84,,,,,,,,,,,,3.38,2.15,2.60*1A
$GPGSV,3,1,10,02,26,240,42,05,51,297,43,06,08,201,23,07,69,081,31*79
$GPGSV,3,2,10,09,32,087,,13,20,269,39,28,04,161,25,30,65,191,19*77
$GPGSV,3,3,10,36,29,151,38,49,33,185,*79
$GLGSV,1,1,02,84,13,266,27,,,,17*58
$GNGLL,4924.76171,N,00841.03065,E,122522.00,A,D*76
$GNRMC,122523.00,A,4924.76177,N,00841.03082,E,0.152,,121219,,,D*6F
$GNVTG,,T,,M,0.152,N,0.282,K,D*36
$GNGGA,122523.00,4924.76177,N,00841.03082,E,2,07,2.15,157.8,M,47.5,M,,0000*47
$GNGSA,A,3,02,05,13,07,06,30,,,,,,,3.38,2.15,2.60*11
$GNGSA,A,3,84,,,,,,,,,,,,3.38,2.15,2.60*1A
$GPGSV,3,1,10,02,26,240,42,05,51,297,43,06,08,201,23,07,69,081,31*79
$GPGSV,3,2,10,09,32,087,,13,20,269,39,28,04,161,25,30,65,191,21*7C
$GPGSV,3,3,10,36,29,151,37,49,33,185,*76
$GLGSV,1,1,03,67,14,114,,84,13,266,28,,,,16*67
$GNGLL,4924.76177,N,00841.03082,E,122523.00,A,D*78
$GNRMC,122524.00,A,4924.76184,N,00841.03106,E,0.141,,121219,,,D*6B
$GNVTG,,T,,M,0.141,N,0.262,K,D*3A
$GNGGA,122524.00,4924.76184,N,00841.03106,E,2,07,2.15,157.4,M,47.5,M,,0000*4D
$GNGSA,A,3,02,05,13,07,06,30,,,,,,,3.37,2.15,2.60*1E
$GNGSA,A,3,84,,,,,,,,,,,,3.37,2.15,2.60*15
$GPGSV,3,1,10,02,26,240,42,05,51,297,43,06,08,201,22,07,69,081,31*78
$GPGSV,3,2,10,09,31,087,,13,20,269,39,28,04,161,25,30,65,191,20*7E
$GPGSV,3,3,10,36,29,151,38,49,33,185,*79
$GLGSV,1,1,03,67,14,114,23,84,13,266,28,,,,16*66
$GNGLL,4924.76184,N,00841.03106,E,122524.00,A,D*7E
$GNRMC,122525.00,A,4924.76189,N,00841.03140,E,0.126,,121219,,,D*64
$GNVTG,,T,,M,0.126,N,0.234,K,D*38
$GNGGA,122525.00,4924.76189,N,00841.03140,E,2,07,2.15,156.9,M,47.5,M,,0000*4F
$GNGSA,A,3,02,05,13,07,06,30,,,,,,,3.37,2.15,2.60*1E
$GNGSA,A,3,84,,,,,,,,,,,,3.37,2.15,2.60*15
$GPGSV,3,1,10,02,26,240,42,05,51,297,43,06,08,201,22,07,69,081,31*78
$GPGSV,3,2,10,09,31,087,19,13,20,269,39,28,04,161,25,30,65,191,21*77
$GPGSV,3,3,10,36,29,151,38,49,33,185,*79
$GLGSV,1,1,03,67,14,114,23,84,13,266,28,,,,15*65
$GNGLL,4924.76189,N,00841.03140,E,122525.00,A,D*70
$GNRMC,122526.00,A,4924.76195,N,00841.03177,E,0.140,,121219,,,D*6E
$GNVTG,,T,,M,0.140,N,0.259,K,D*33
$GNGGA,122526.00,4924.76195,N,00841.03177,E,2,07,2.15,156.3,M,47.5,M,,0000*4F
$GNGSA,A,3,02,05,13,07,06,30,,,,,,,3.37,2.15,2.60*1E
$GNGSA,A,3,84,,,,,,,,,,,,3.37,2.15,2.60*15
$GPGSV,3,1,10,02,26,240,42,05,51,297,43,06,08,201,22,07,69,081,31*78
$GPGSV,3,2,10,09,31,087,19,13,20,269,39,28,04,161,24,30,65,191,21*76
$GPGSV,3,3,10,36,29,151,38,49,33,185,*79
$GLGSV,1,1,03,67,14,114,24,84,13,266,28,,,,16*61
$GNGLL,4924.76195,N,00841.03177,E,122526.00,A,D*7A
$GNRMC,122527.00,A,4924.76198,N,00841.03196,E,0.154,,121219,,,D*68
$GNVTG,,T,,M,0.154,N,0.285,K,D*37
$GNGGA,122527.00,4924.76198,N,00841.03196,E,2,07,2.15,156.0,M,47.5,M,,0000*4F
$GNGSA,A,3,02,05,13,07,06,30,,,,,,,3.37,2.15,2.60*1E
$GNGSA,A,3,84,,,,,,,,,,,,3.37,2.15,2.60*15
$GPGSV,3,1,10,02,26,240,43,05,51,297,43,06,08,201,22,07,69,081,30*78
$GPGSV,3,2,10,09,31,087,19,13,20,269,39,28,04,161,25,30,65,191,21*77
$GPGSV,3,3,10,36,29,151,38,49,33,185,*79
$GLGSV,1,1,04,67,14,114,25,68,66,088,,84,13,266,28,,,,16*59
$GNGLL,4924.76198,N,00841.03196,E,122527.00,A,D*79
$GNRMC,122528.00,A,4924.76201,N,00841.03216,E,0.091,,121219,,,D*67
$GNVTG,,T,,M,0.091,N,0.169,K,D*3E
$GNGGA,122528.00,4924.76201,N,00841.03216,E,2,07,2.15,155.7,M,47.5,M,,0000*4C
$GNGSA,A,3,02,05,13,07,06,30,,,,,,,3.37,2.15,2.60*1E
$GNGSA,A,3,84,,,,,,,,,,,,3.37,2.15,2.60*15
$GPGSV,3,1,10,02,26,240,43,05,51,297,43,06,08,201,22,07,69,081,30*78
$GPGSV,3,2,10,09,31,087,18,13,20,269,39,28,04,161,25,30,65,191,21*76
$GPGSV,3,3,10,36,29,151,38,49,33,185,*79
$GLGSV,1,1,04,67,14,114,26,68,66,088,,84,13,266,28,,,,16*5A
$GNGLL,4924.76201,N,00841.03216,E,122528.00,A,D*7E
$GNRMC,122529.00,A,4924.76206,N,00841.03241,E,0.063,,121219,,,D*6E
$GNVTG,,T,,M,0.063,N,0.117,K,D*3A
$GNGGA,122529.00,4924.76206,N,00841.03241,E,2,07,2.15,155.2,M,47.5,M,,0000*4D
$GNGSA,A,3,02,05,13,07,06,30,,,,,,,3.37,2.15,2.60*1E
$GNGSA,A,3,84,,,,,,,,,,,,3.37,2.15,2.60*15
$GPGSV,3,1,10,02,26,240,42,05,51,297,43,06,08,201,23,07,69,081,30*78
$GPGSV,3,2,10,09,31,087,18,13,20,269,39,28,04,161,25,30,65,191,22*75
$GPGSV,3,3,10,36,29,151,38,49,33,185,*79
$GLGSV,1,1,04,67,14,114,26,68,66,088,,84,13,266,28,,,,16*5A
$GNGLL,4924.76206,N,00841.03241,E,122529.00,A,D*7A
$GNRMC,122530.00,A,4924.76214,N,00841.03270,E,0.179,,121219,,,D*6D
$GNVTG,,T,,M,0.179,N,0.331,K,D*36
$GNGGA,122530.00,4924.76214,N,00841.03270,E,2,07,2.15,154.8,M,47.5,M,,0000*4F
$GNGSA,A,3,02,05,13,07,06,30,,,,,,,3.37,2.15,2.60*1E
$GNGSA,A,3,84,,,,,,,,,,,,3.37,2.15,2.60*15
$GPGSV,3,1,10,02,26,240,42,05,51,297,43,06,08,201,23,07,69,081,29*70
$GPGSV,3,2,10,09,31,087,19,13,20,269,39,28,04,161,25,30,65,191,22*74
$GPGSV,3,3,10,36,29,151,38,49,33,185,*79
$GLGSV,1,1,03,67,14,114,26,68,66,088,,84,13,266,28*5A
$GNGLL,4924.76214,N,00841.03270,E,122530.00,A,D*73
$GNRMC,122531.00,A,4924.76219,N,00841.03291,E,0.095,,121219,,,D*6D
$GNVTG,,T,,M,0.095,N,0.175,K,D*37
$GNGGA,122531.00,4924.76219,N,00841.03291,E,2,07,2.15,154.4,M,47.5,M,,0000*40
$GNGSA,A,3,02,05,13,07,06,30,,,,,,,3.37,2.15,2.60*1E
$GNGSA,A,3,84,,,,,,,,,,,,3.37,2.15,2.60*15
$GPGSV,3,1,10,02,26,240,42,05,51,297,43,06,08,201,23,07,69,081,29*70
$GPGSV,3,2,10,09,31,087,19,13,20,269,39,28,04,161,25,30,65,191,22*74
$GPGSV,3,3,10,36,29,151,38,49,33,185,*79
$GLGSV,1,1,04,67,14,114,26,68,66,088,,69,53,319,,84,13,266,28*6F
$GNGLL,4924.76219,N,00841.03291,E,122531.00,A,D*70
$GNRMC,122532.00,A,4924.76224,N,00841.03318,E,0.144,,121219,,,D*6D
$GNVTG,,T,,M,0.144,N,0.267,K,D*3A
$GNGGA,122532.00,4924.76224,N,00841.03318,E,2,07,2.15,154.0,M,47.5,M,,0000*49
$GNGSA,A,3,02,05,13,07,06,30,,,,,,,3.37,2.15,2.60*1E
$GNGSA,A,3,84,,,,,,,,,,,,3.37,2.15,2.60*15
$GPGSV,3,1,10,02,26,240,42,05,51,297,43,06,08,201,24,07,69,081,29*77
$GPGSV,3,2,10,09,31,087,19,13,20,269,39,28,04,161,25,30,65,191,22*74
$GPGSV,3,3,10,36,29,151,38,49,33,185,*79
$GLGSV,1,1,04,67,14,114,26,68,66,088,,69,53,319,,84,13,266,28*6F
$GNGLL,4924.76224,N,00841.03318,E,122532.00,A,D*7D
$GNRMC,122533.00,A,4924.76228,N,00841.03344,E,0.084,,121219,,,D*64
$GNVTG,,T,,M,0.084,N,0.156,K,D*36
$GNGGA,122533.00,4924.76228,N,00841.03344,E,2,07,2.15,153.7,M,47.5,M,,0000*4D
$GNGSA,A,3,02,05,13,07,06,30,,,,,,,3.37,2.15,2.60*1E
$GNGSA,A,3,84,,,,,,,,,,,,3.37,2.15,2.60*15
$GPGSV,3,1,10,02,26,240,42,05,51,297,43,06,08,201,24,07,69,081,29*77
$GPGSV,3,2,10,09,31,087,20,13,20,269,39,28,04,161,25,30,65,191,23*7F
$GPGSV,3,3,10,36,29,151,38,49,33,185,*79
$GLGSV,1,1,04,67,14,114,26,68,66,088,,69,53,319,,84,13,266,28*6F
$GNGLL,4924.76228,N,00841.03344,E,122533.00,A,D*79
$GNRMC,122534.00,A,4924.76236,N,00841.03367,E,0.076,,121219,,,D*60
$GNVTG,,T,,M,0.076,N,0.140,K,D*3C
$GNGGA,122534.00,4924.76236,N,00841.03367,E,2,07,2.15,153.2,M,47.5,M,,0000*41
$GNGSA,A,3,02,05,13,07,06,30,,,,,,,3.37,2.15,2.59*14
$GNGSA,A,3,84,,,,,,,,,,,,3.37,2.15,2.59*1F
$GPGSV,3,1,10,02,26,240,42,05,51,297,43,06,08,201,24,07,69,081,29*77
$GPGSV,3,2,10,09,31,087,20,13,20,269,39,28,04,161,25,30,65,191,23*7F
$GPGSV,3,3,10,36,29,151,37,49,33,185,*76
$GLGSV,1,1,04,67,14,114,26,68,66,088,,69,53,319,,84,13,266,28*6F
$GNGLL,4924.76236,N,00841.03367,E,122534.00,A,D*70
$GNRMC,122535.00,A,4924.76240,N,00841.03381,E,0.065,,121219,,,D*6A
$GNVTG,,T,,M,0.065,N,0.121,K,D*39
$GNGGA,122535.00,4924.76240,N,00841.03381,E,2,07,2.15,153.0,M,47.5,M,,0000*4B
$GNGSA,A,3,02,05,13,07,06,30,,,,,,,3.37,2.15,2.59*14
$GNGSA,A,3,84,,,,,,,,,,,,3.37,2.15,2.59*1F
$GPGSV,3,1,10,02,26,240,42,05,51,297,43,06,08,201,23,07,69,081,28*71
$GPGSV,3,2,10,09,31,087,21,13,20,269,39,28,04,161,24,30,65,191,24*78
$GPGSV,3,3,10,36,29,151,37,49,33,185,*76
$GLGSV,1,1,04,67,14,114,26,68,66,088,,69,53,319,,84,13,266,28*6F
$GNGLL,4924.76240,N,00841.03381,E,122535.00,A,D*78
$GNRMC,122536.00,A,4924.76242,N,00841.03393,E,0.022,,121219,,,D*6B
$GNVTG,,T,,M,0.022,N,0.040,K,D*3C
$GNGGA,122536.00,4924.76242,N,00841.03393,E,2,07,2.15,152.8,M,47.5,M,,0000*40
$GNGSA,A,3,02,05,13,07,06,30,,,,,,,3.37,2.15,2.59*14
$GNGSA,A,3,84,,,,,,,,,,,,3.37,2.15,2.59*1F
$GPGSV,3,1,10,02,26,240,42,05,51,297,43,06,08,201,22,07,69,081,28*70
$GPGSV,3,2,10,09,31,087,20,13,20,269,39,28,04,161,25,30,65,191,25*79
$GPGSV,3,3,10,36,29,151,37,49,33,185,*76
$GLGSV,1,1,04,67,14,114,25,68,66,088,,69,53,319,,84,13,266,28*6C
$GNGLL,4924.76242,N,00841.03393,E,122536.00,A,D*7A